<?xml version='1.0' encoding='UTF-8'?>
<kml xmlns='http://www.opengis.net/kml/2.2'>
	<Document>
		<name>杜の都ハートエイド・宮城野区版</name>
		<description><![CDATA[<br>『杜の都ハートエイド』の応急手当協力事業所を表示します。<br><br>地図上のマークは、事業所の所在地を表しています。<br>　]]></description>
		<Folder>
			<name>無題のレイヤ</name>
			<Placemark>
				<styleUrl>#icon-22</styleUrl>
				<name>パラディソ岩切店</name>
				<ExtendedData>
				</ExtendedData>
				<description><![CDATA[宮城野区南宮字青津目１－２<br>扇屋商事㈱]]></description>
				<Point>
					<coordinates>140.96048,38.307492,0.0</coordinates>
				</Point>
			</Placemark>
			<Placemark>
				<styleUrl>#icon-22</styleUrl>
				<name>JFE条鋼㈱仙台製造所</name>
				<ExtendedData>
				</ExtendedData>
				<description><![CDATA[宮城野区港一丁目６－１<br>ＪＦＥ条鋼㈱仙台製造所]]></description>
				<Point>
					<coordinates>141.016967,38.265478,0.0</coordinates>
				</Point>
			</Placemark>
			<Placemark>
				<styleUrl>#icon-22</styleUrl>
				<name>キリンビール㈱仙台工場</name>
				<ExtendedData>
				</ExtendedData>
				<description><![CDATA[宮城野区港二丁目２－１<br>キリンビール㈱仙台工場]]></description>
				<Point>
					<coordinates>140.99407200000002,38.267028,0.0</coordinates>
				</Point>
			</Placemark>
			<Placemark>
				<styleUrl>#icon-22</styleUrl>
				<name>東洋製罐㈱仙台工場</name>
				<ExtendedData>
				</ExtendedData>
				<description><![CDATA[宮城野区港二丁目４－１<br>東洋製罐㈱仙台工場]]></description>
				<Point>
					<coordinates>140.994158,38.272048,0.0</coordinates>
				</Point>
			</Placemark>
			<Placemark>
				<styleUrl>#icon-22</styleUrl>
				<name>夢メッセみやぎ</name>
				<ExtendedData>
				</ExtendedData>
				<description><![CDATA[宮城野区港三丁目１－７<br>（財）みやぎ産業交流センター]]></description>
				<Point>
					<coordinates>140.99537,38.274702,0.0</coordinates>
				</Point>
			</Placemark>
			<Placemark>
				<styleUrl>#icon-22</styleUrl>
				<name>宮城県共同倉庫㈱</name>
				<ExtendedData>
				</ExtendedData>
				<description><![CDATA[宮城野区港四丁目７－１<br>宮城県共同倉庫㈱]]></description>
				<Point>
					<coordinates>141.017905,38.273536,0.0</coordinates>
				</Point>
			</Placemark>
			<Placemark>
				<styleUrl>#icon-22</styleUrl>
				<name>石油資源開発㈱線仙台パイプライン管理事務所</name>
				<ExtendedData>
				</ExtendedData>
				<description><![CDATA[宮城野区港四丁目１３－５<br>石油資源開発㈱]]></description>
				<Point>
					<coordinates>141.024332,38.280919,0.0</coordinates>
				</Point>
			</Placemark>
			<Placemark>
				<styleUrl>#icon-22</styleUrl>
				<name>キリン物流㈱東北支社</name>
				<ExtendedData>
				</ExtendedData>
				<description><![CDATA[宮城野区蒲生字竹之内２１８－１９<br>キリン物流㈱東北支社]]></description>
				<Point>
					<coordinates>140.990285,38.266531,0.0</coordinates>
				</Point>
			</Placemark>
			<Placemark>
				<styleUrl>#icon-22</styleUrl>
				<name>仙台農業共同組合ガス供給センター</name>
				<ExtendedData>
				</ExtendedData>
				<description><![CDATA[宮城野区岡田字在家１０７－３<br>仙台農業共同組合ガス供給センター]]></description>
				<Point>
					<coordinates>140.97718,38.255851,0.0</coordinates>
				</Point>
			</Placemark>
			<Placemark>
				<styleUrl>#icon-22</styleUrl>
				<name>仙台農業共同組合高砂支店</name>
				<ExtendedData>
				</ExtendedData>
				<description><![CDATA[宮城野区福室二丁目７－１３<br>仙台農業共同組合]]></description>
				<Point>
					<coordinates>140.968918,38.273657,0.0</coordinates>
				</Point>
			</Placemark>
			<Placemark>
				<styleUrl>#icon-22</styleUrl>
				<name>東北学院高等学校</name>
				<ExtendedData>
				</ExtendedData>
				<description><![CDATA[宮城野区小鶴字高野１２３－１<br>東北学院高等学校]]></description>
				<Point>
					<coordinates>140.9436115,38.2763841,0.0</coordinates>
				</Point>
			</Placemark>
			<Placemark>
				<styleUrl>#icon-22</styleUrl>
				<name>サトー商会本社</name>
				<ExtendedData>
				</ExtendedData>
				<description><![CDATA[宮城野区扇町五丁目６－２２<br>㈱サトー商会]]></description>
				<Point>
					<coordinates>140.949639,38.268992,0.0</coordinates>
				</Point>
			</Placemark>
			<Placemark>
				<styleUrl>#icon-22</styleUrl>
				<name>宮城テレビ放送</name>
				<ExtendedData>
				</ExtendedData>
				<description><![CDATA[宮城野区日の出町一丁目５－３３<br>㈱宮城テレビ放送]]></description>
				<Point>
					<coordinates>140.93557800000002,38.269631,0.0</coordinates>
				</Point>
			</Placemark>
			<Placemark>
				<styleUrl>#icon-22</styleUrl>
				<name>宮城トヨタ自動車㈱本社</name>
				<ExtendedData>
				</ExtendedData>
				<description><![CDATA[宮城野区日の出町二丁目３－７<br>宮城トヨタ自動車㈱]]></description>
				<Point>
					<coordinates>140.936104,38.268536,0.0</coordinates>
				</Point>
			</Placemark>
			<Placemark>
				<styleUrl>#icon-22</styleUrl>
				<name>NTTクオリス・電話帳事業部東北工場</name>
				<ExtendedData>
				</ExtendedData>
				<description><![CDATA[宮城野区日の出町三丁目４－４５<br>NTTクオリス・電話帳事業部]]></description>
				<Point>
					<coordinates>140.934708,38.265428,0.0</coordinates>
				</Point>
			</Placemark>
			<Placemark>
				<styleUrl>#icon-22</styleUrl>
				<name>宮城いすゞ自動車㈱</name>
				<ExtendedData>
				</ExtendedData>
				<description><![CDATA[宮城野区日の出町一丁目４－３５<br>宮城いすゞ自動車㈱]]></description>
				<Point>
					<coordinates>140.934177,38.270372,0.0</coordinates>
				</Point>
			</Placemark>
			<Placemark>
				<styleUrl>#icon-22</styleUrl>
				<name>大和薬品㈱</name>
				<ExtendedData>
				</ExtendedData>
				<description><![CDATA[宮城野区日の出町一丁目２－１<br>大和薬品㈱]]></description>
				<Point>
					<coordinates>140.931617,38.271623,0.0</coordinates>
				</Point>
			</Placemark>
			<Placemark>
				<styleUrl>#icon-22</styleUrl>
				<name>パチンコタイガー新・苦竹店Ⅱ</name>
				<ExtendedData>
				</ExtendedData>
				<description><![CDATA[宮城野区苦竹一丁目４－４２<br>仙台観光株式会社　パチンコタイガー新・苦竹店Ⅱ]]></description>
				<Point>
					<coordinates>140.916251,38.267883,0.0</coordinates>
				</Point>
			</Placemark>
			<Placemark>
				<styleUrl>#icon-22</styleUrl>
				<name>DNP東北</name>
				<ExtendedData>
				</ExtendedData>
				<description><![CDATA[宮城野区苦竹三丁目５－１<br>株式会社DNP東北]]></description>
				<Point>
					<coordinates>140.925728,38.266125,0.0</coordinates>
				</Point>
			</Placemark>
			<Placemark>
				<styleUrl>#icon-22</styleUrl>
				<name>仙台農業共同組合本店</name>
				<ExtendedData>
				</ExtendedData>
				<description><![CDATA[宮城野区新田東二丁目１５－２<br>仙台農業共同組合　本店]]></description>
				<Point>
					<coordinates>140.933768,38.276586,0.0</coordinates>
				</Point>
			</Placemark>
			<Placemark>
				<styleUrl>#icon-22</styleUrl>
				<name>仙台農業共同組合新田東支店</name>
				<ExtendedData>
				</ExtendedData>
				<description><![CDATA[宮城野区新田東二丁目１５－２<br>仙台農業共同組合　新田東支店]]></description>
				<Point>
					<coordinates>140.933921,38.276694,0.0</coordinates>
				</Point>
			</Placemark>
			<Placemark>
				<styleUrl>#icon-22</styleUrl>
				<name>クリネックススタジアム宮城（楽天野球団）</name>
				<ExtendedData>
				</ExtendedData>
				<description><![CDATA[宮城野区宮城野二丁目１１－６<br>株式会社　楽天野球団]]></description>
				<Point>
					<coordinates>140.902469,38.256557,0.0</coordinates>
				</Point>
			</Placemark>
			<Placemark>
				<styleUrl>#icon-22</styleUrl>
				<name>仙台農業共同組合岩切支店</name>
				<ExtendedData>
				</ExtendedData>
				<description><![CDATA[宮城野区岩切字今市５９－１<br>仙台農業協同組合　岩切支店]]></description>
				<Point>
					<coordinates>140.942171,38.303391,0.0</coordinates>
				</Point>
			</Placemark>
			<Placemark>
				<styleUrl>#icon-22</styleUrl>
				<name>特別養護老人ホーム パルシア</name>
				<ExtendedData>
				</ExtendedData>
				<description><![CDATA[宮城野区燕沢東三丁目８－１０<br>特別養護老人ホームパルシア]]></description>
				<Point>
					<coordinates>140.931437,38.288379,0.0</coordinates>
				</Point>
			</Placemark>
			<Placemark>
				<styleUrl>#icon-22</styleUrl>
				<name>仙台オープン病院</name>
				<ExtendedData>
				</ExtendedData>
				<description><![CDATA[宮城野区鶴ヶ谷五丁目２２－１<br>（財）仙台市医療センター　仙台オープン病院]]></description>
				<Point>
					<coordinates>140.917168,38.294955,0.0</coordinates>
				</Point>
			</Placemark>
			<Placemark>
				<styleUrl>#icon-22</styleUrl>
				<name>東北公済病院　宮城野分院</name>
				<ExtendedData>
				</ExtendedData>
				<description><![CDATA[宮城野区東仙台四丁目１６－１<br>東北公済病院　宮城野分院]]></description>
				<Point>
					<coordinates>140.911031,38.278113,0.0</coordinates>
				</Point>
			</Placemark>
			<Placemark>
				<styleUrl>#icon-22</styleUrl>
				<name>光ヶ丘スペルマン病院</name>
				<ExtendedData>
				</ExtendedData>
				<description><![CDATA[宮城野区東仙台六丁目７－１<br>（財）光ヶ丘スペルマン病院]]></description>
				<Point>
					<coordinates>140.911063,38.279115,0.0</coordinates>
				</Point>
			</Placemark>
			<Placemark>
				<styleUrl>#icon-22</styleUrl>
				<name>中嶋病院</name>
				<ExtendedData>
				</ExtendedData>
				<description><![CDATA[宮城野区大梶１５－２７<br>医療法人社団康陽会　中嶋病院]]></description>
				<Point>
					<coordinates>140.906884,38.272381,0.0</coordinates>
				</Point>
			</Placemark>
			<Placemark>
				<styleUrl>#icon-22</styleUrl>
				<name>啓生苑</name>
				<ExtendedData>
				</ExtendedData>
				<description><![CDATA[宮城野区幸町四丁目６－２<br>社会福祉法人　宮城県身体障害者福祉協会　啓生苑]]></description>
				<Point>
					<coordinates>140.905546,38.27663,0.0</coordinates>
				</Point>
			</Placemark>
			<Placemark>
				<styleUrl>#icon-22</styleUrl>
				<name>仙台農業共同組合　原町支店</name>
				<ExtendedData>
				</ExtendedData>
				<description><![CDATA[宮城野区五輪一丁目６－４<br>仙台農業共同組合　原町支店]]></description>
				<Point>
					<coordinates>140.901478,38.263847,0.0</coordinates>
				</Point>
			</Placemark>
			<Placemark>
				<styleUrl>#icon-22</styleUrl>
				<name>仙台原ノ町ピボット</name>
				<ExtendedData>
				</ExtendedData>
				<description><![CDATA[宮城野区五輪二丁目１２－５５<br>東北総合サービス株式会社　仙台原ノ町ピボット]]></description>
				<Point>
					<coordinates>140.911614,38.2661061,0.0</coordinates>
				</Point>
			</Placemark>
			<Placemark>
				<styleUrl>#icon-22</styleUrl>
				<name>東北総合サービス㈱原ノ町営業所</name>
				<ExtendedData>
				</ExtendedData>
				<description><![CDATA[宮城野区五輪二丁目１２－５５<br>東北総合サービス㈱　原ノ町営業所]]></description>
				<Point>
					<coordinates>140.911843,38.266169,0.0</coordinates>
				</Point>
			</Placemark>
			<Placemark>
				<styleUrl>#icon-22</styleUrl>
				<name>守屋木材株式会社</name>
				<ExtendedData>
				</ExtendedData>
				<description><![CDATA[宮城野区原町六丁目１－１６<br>守屋木材株式会社]]></description>
				<Point>
					<coordinates>140.911807,38.268901,0.0</coordinates>
				</Point>
			</Placemark>
			<Placemark>
				<styleUrl>#icon-22</styleUrl>
				<name>仙台ＭＴビル</name>
				<ExtendedData>
				</ExtendedData>
				<description><![CDATA[宮城野区榴岡四丁目２－３<br>森トラスト株式会社　仙台MTビル]]></description>
				<Point>
					<coordinates>140.888152,38.259093,0.0</coordinates>
				</Point>
			</Placemark>
			<Placemark>
				<styleUrl>#icon-22</styleUrl>
				<name>ＪＸ日鉱日石エネルギー株式会社　仙台製油所</name>
				<ExtendedData>
				</ExtendedData>
				<description><![CDATA[宮城野区港五丁目１－１<br>ＪＸ日鉱日石エネルギー株式会社　仙台製油所]]></description>
				<Point>
					<coordinates>141.039144,38.279026,0.0</coordinates>
				</Point>
			</Placemark>
			<Placemark>
				<styleUrl>#icon-22</styleUrl>
				<name>東北発電工業株式会社　新仙台支社</name>
				<ExtendedData>
				</ExtendedData>
				<description><![CDATA[宮城野区港五丁目２－１<br>東北発電工業株式会社　新仙台支社]]></description>
				<Point>
					<coordinates>141.03824800000004,38.273459,0.0</coordinates>
				</Point>
			</Placemark>
			<Placemark>
				<styleUrl>#icon-101</styleUrl>
				<name>仙台市陸上競技場</name>
				<ExtendedData>
				</ExtendedData>
				<description><![CDATA[仙台市宮城野区宮城野二丁目１１－６<br>設置場所：１階受付]]></description>
				<Point>
					<coordinates>140.903178,38.258464,0.0</coordinates>
				</Point>
			</Placemark>
			<Placemark>
				<styleUrl>#icon-101</styleUrl>
				<name>仙台サンプラザ</name>
				<ExtendedData>
				</ExtendedData>
				<description><![CDATA[宮城野区榴岡5-11-1<br>仙台サンプラザ株式会社<br>設置場所：フロント]]></description>
				<Point>
					<coordinates>140.894209,38.258211,0.0</coordinates>
				</Point>
			</Placemark>
			<Placemark>
				<styleUrl>#icon-101</styleUrl>
				<name>出花体育館</name>
				<ExtendedData>
				</ExtendedData>
				<description><![CDATA[仙台市宮城野区出花一丁目１３－７<br>設置場所：１階ホール]]></description>
				<Point>
					<coordinates>140.983461,38.276716,0.0</coordinates>
				</Point>
			</Placemark>
			<Placemark>
				<styleUrl>#icon-101</styleUrl>
				<name>宮城野体育館（元気フィールド）</name>
				<ExtendedData>
				</ExtendedData>
				<description><![CDATA[仙台市宮城野区新田東四丁目１－１<br>設置場所：体育館棟１階エントランスホール<br>（仙台市設置）]]></description>
				<Point>
					<coordinates>140.936449,38.277792,0.0</coordinates>
				</Point>
			</Placemark>
			<Placemark>
				<styleUrl>#icon-101</styleUrl>
				<name>仙台市民球場（元気フィールド）</name>
				<ExtendedData>
				</ExtendedData>
				<description><![CDATA[仙台市宮城野区新田東４丁目１?１<br>設置場所：野球場棟１階ホール]]></description>
				<Point>
					<coordinates>140.936179,38.279585,0.0</coordinates>
				</Point>
			</Placemark>
			<Placemark>
				<styleUrl>#icon-101</styleUrl>
				<name>鶴ケ谷温水プール</name>
				<ExtendedData>
				</ExtendedData>
				<description><![CDATA[宮城野区鶴ケ谷八丁目１９－１<br>設置場所：１階ホール]]></description>
				<Point>
					<coordinates>140.917385,38.289671,0.0</coordinates>
				</Point>
			</Placemark>
			<Placemark>
				<styleUrl>#icon-101</styleUrl>
				<name>宮城野区役所</name>
				<ExtendedData>
				</ExtendedData>
				<description><![CDATA[仙台市宮城野区五輪２丁目１２?３５<br>設置場所：１階ホール　保健福祉センター２階ロビー]]></description>
				<Point>
					<coordinates>140.909911,38.266185,0.0</coordinates>
				</Point>
			</Placemark>
			<Placemark>
				<styleUrl>#icon-101</styleUrl>
				<name>仙台市高砂老人福祉センター</name>
				<ExtendedData>
				</ExtendedData>
				<description><![CDATA[仙台市宮城野区高砂１丁目２４?９<br>設置場所：１階健康相談室]]></description>
				<Point>
					<coordinates>140.9739856,38.2704686,0.0</coordinates>
				</Point>
			</Placemark>
			<Placemark>
				<styleUrl>#icon-101</styleUrl>
				<name>仙台市宮城野障害者福祉センター</name>
				<ExtendedData>
				</ExtendedData>
				<description><![CDATA[仙台市宮城野区大梶１６?２<br>設置場所：１階事務室<br>仙台市設置]]></description>
				<Point>
					<coordinates>140.907424,38.272575,0.0</coordinates>
				</Point>
			</Placemark>
			<Placemark>
				<styleUrl>#icon-101</styleUrl>
				<name>仙台市宮城野児童館</name>
				<ExtendedData>
				</ExtendedData>
				<description><![CDATA[仙台市宮城野区東宮城野２?４０<br>設置場所：１階事務室]]></description>
				<Point>
					<coordinates>140.915943,38.260850000000005,0.0</coordinates>
				</Point>
			</Placemark>
			<Placemark>
				<styleUrl>#icon-101</styleUrl>
				<name>仙台市中央卸売市場 花き市場</name>
				<ExtendedData>
				</ExtendedData>
				<description><![CDATA[仙台市宮城野区苦竹４丁目１?２０<br>設置場所：警備員室]]></description>
				<Point>
					<coordinates>140.925682,38.264654,0.0</coordinates>
				</Point>
			</Placemark>
			<Placemark>
				<styleUrl>#icon-101</styleUrl>
				<name>仙台市中央卸売市場 食肉市場</name>
				<ExtendedData>
				</ExtendedData>
				<description><![CDATA[仙台市宮城野区扇町６丁目３?６<br>設置場所：警備員室]]></description>
				<Point>
					<coordinates>140.955137,38.26782,0.0</coordinates>
				</Point>
			</Placemark>
			<Placemark>
				<styleUrl>#icon-101</styleUrl>
				<name>仙台市南蒲生浄化センター</name>
				<ExtendedData>
				</ExtendedData>
				<description><![CDATA[宮城野区蒲生字八郎兵ヱ谷地第二<br>設置場所：１階正面玄関]]></description>
				<Point>
					<coordinates>141.003041,38.250356,0.0</coordinates>
				</Point>
			</Placemark>
			<Placemark>
				<styleUrl>#icon-101</styleUrl>
				<name>仙台市ガス局 幸町庁舎</name>
				<ExtendedData>
				</ExtendedData>
				<description><![CDATA[仙台市宮城野区幸町５丁目１３?１<br>設置場所：１階守衛室]]></description>
				<Point>
					<coordinates>140.9065949,38.2735135,0.0</coordinates>
				</Point>
			</Placemark>
			<Placemark>
				<styleUrl>#icon-101</styleUrl>
				<name>仙台市ガス局 港工場</name>
				<ExtendedData>
				</ExtendedData>
				<description><![CDATA[仙台市宮城野区港４丁目１３?１<br>設置場所：１階受付]]></description>
				<Point>
					<coordinates>141.024192,38.280116,0.0</coordinates>
				</Point>
			</Placemark>
			<Placemark>
				<styleUrl>#icon-101</styleUrl>
				<name>仙台市立 仙台工業高等学校</name>
				<ExtendedData>
				</ExtendedData>
				<description><![CDATA[仙台市宮城野区東宮城野３?１<br>設置場所：事務室]]></description>
				<Point>
					<coordinates>140.917681,38.26056,0.0</coordinates>
				</Point>
			</Placemark>
			<Placemark>
				<styleUrl>#icon-101</styleUrl>
				<name>仙台市立 仙台大志高等学校</name>
				<ExtendedData>
				</ExtendedData>
				<description><![CDATA[仙台市宮城野区五輪１丁目４?１０<br>設置場所：職員室]]></description>
				<Point>
					<coordinates>140.9006965,38.2628514,0.0</coordinates>
				</Point>
			</Placemark>
			<Placemark>
				<styleUrl>#icon-101</styleUrl>
				<name>仙台市立 仙台第二工業高等学校</name>
				<ExtendedData>
				</ExtendedData>
				<description><![CDATA[仙台市宮城野区東宮城野３?１<br>設置場所：職員室]]></description>
				<Point>
					<coordinates>140.9175586,38.26056,0.0</coordinates>
				</Point>
			</Placemark>
			<Placemark>
				<styleUrl>#icon-101</styleUrl>
				<name>仙台市立 宮城野中学校</name>
				<ExtendedData>
				</ExtendedData>
				<description><![CDATA[仙台市宮城野区五輪１丁目４?２５<br>設置場所：体育館前廊下]]></description>
				<Point>
					<coordinates>140.9000044,38.2625337,0.0</coordinates>
				</Point>
			</Placemark>
			<Placemark>
				<styleUrl>#icon-101</styleUrl>
				<name>仙台市立 東仙台中学校</name>
				<ExtendedData>
				</ExtendedData>
				<description><![CDATA[仙台市宮城野区東仙台２丁目１６?１<br>設置場所：職員室]]></description>
				<Point>
					<coordinates>140.917319,38.277486,0.0</coordinates>
				</Point>
			</Placemark>
			<Placemark>
				<styleUrl>#icon-101</styleUrl>
				<name>仙台市立 東華中学校</name>
				<ExtendedData>
				</ExtendedData>
				<description><![CDATA[仙台市宮城野区宮城野２丁目１４?２７<br>設置場所：職員室]]></description>
				<Point>
					<coordinates>140.899839,38.254444,0.0</coordinates>
				</Point>
			</Placemark>
			<Placemark>
				<styleUrl>#icon-101</styleUrl>
				<name>仙台市立 高砂中学校</name>
				<ExtendedData>
				</ExtendedData>
				<description><![CDATA[仙台市宮城野区白鳥１丁目３２?１<br>設置場所：職員室]]></description>
				<Point>
					<coordinates>140.97647000000003,38.264859,0.0</coordinates>
				</Point>
			</Placemark>
			<Placemark>
				<styleUrl>#icon-101</styleUrl>
				<name>仙台市立 岩切中学校</name>
				<ExtendedData>
				</ExtendedData>
				<description><![CDATA[仙台市宮城野区岩切字三所南２３?２<br>設置場所：職員室]]></description>
				<Point>
					<coordinates>140.945462,38.30165800000001,0.0</coordinates>
				</Point>
			</Placemark>
			<Placemark>
				<styleUrl>#icon-101</styleUrl>
				<name>仙台市立 鶴谷中学校</name>
				<ExtendedData>
				</ExtendedData>
				<description><![CDATA[仙台市宮城野区鶴ケ谷５丁目２４<br>設置場所：職員室]]></description>
				<Point>
					<coordinates>140.91506,38.292336,0.0</coordinates>
				</Point>
			</Placemark>
			<Placemark>
				<styleUrl>#icon-101</styleUrl>
				<name>仙台市立 中野中学校</name>
				<ExtendedData>
				</ExtendedData>
				<description><![CDATA[仙台市宮城野区中野字高橋前６５<br>設置場所：職員室]]></description>
				<Point>
					<coordinates>140.975538,38.282327,0.0</coordinates>
				</Point>
			</Placemark>
			<Placemark>
				<styleUrl>#icon-101</styleUrl>
				<name>仙台市立 幸町中学校</name>
				<ExtendedData>
				</ExtendedData>
				<description><![CDATA[仙台市宮城野区幸町１丁目１５?１<br>設置場所：職員室]]></description>
				<Point>
					<coordinates>140.893431,38.277574,0.0</coordinates>
				</Point>
			</Placemark>
			<Placemark>
				<styleUrl>#icon-101</styleUrl>
				<name>仙台市立 西山中学校</name>
				<ExtendedData>
				</ExtendedData>
				<description><![CDATA[仙台市宮城野区燕沢２丁目２１?１<br>設置場所：職員室]]></description>
				<Point>
					<coordinates>140.917287,38.282771,0.0</coordinates>
				</Point>
			</Placemark>
			<Placemark>
				<styleUrl>#icon-101</styleUrl>
				<name>仙台市立 田子中学校</name>
				<ExtendedData>
				</ExtendedData>
				<description><![CDATA[仙台市宮城野区田子２丁目１２?１<br>設置場所：職員室]]></description>
				<Point>
					<coordinates>140.958169,38.278973,0.0</coordinates>
				</Point>
			</Placemark>
			<Placemark>
				<styleUrl>#icon-101</styleUrl>
				<name>仙台市立鶴谷特別支援学校</name>
				<ExtendedData>
				</ExtendedData>
				<description><![CDATA[仙台市宮城野区鶴ケ谷５丁目２２?１<br>設置場所：保健室]]></description>
				<Point>
					<coordinates>140.915813,38.295438,0.0</coordinates>
				</Point>
			</Placemark>
			<Placemark>
				<styleUrl>#icon-101</styleUrl>
				<name>仙台市立 榴岡小学校</name>
				<ExtendedData>
				</ExtendedData>
				<description><![CDATA[仙台市宮城野区東九番丁８８?１<br>設置場所：職員室]]></description>
				<Point>
					<coordinates>140.890888,38.261529,0.0</coordinates>
				</Point>
			</Placemark>
			<Placemark>
				<styleUrl>#icon-101</styleUrl>
				<name>仙台市立 原町小学校</name>
				<ExtendedData>
				</ExtendedData>
				<description><![CDATA[仙台市宮城野区原町２丁目６?１<br>設置場所：体育館]]></description>
				<Point>
					<coordinates>140.903151,38.266738,0.0</coordinates>
				</Point>
			</Placemark>
			<Placemark>
				<styleUrl>#icon-101</styleUrl>
				<name>仙台市立 岩切小学校</name>
				<ExtendedData>
				</ExtendedData>
				<description><![CDATA[仙台市宮城野区岩切字今市東１?２<br>設置場所：保健室]]></description>
				<Point>
					<coordinates>140.942488,38.299782,0.0</coordinates>
				</Point>
			</Placemark>
			<Placemark>
				<styleUrl>#icon-101</styleUrl>
				<name>仙台市立 高砂小学校</name>
				<ExtendedData>
				</ExtendedData>
				<description><![CDATA[仙台市宮城野区福田町１丁目１１?１<br>設置場所：体育館]]></description>
				<Point>
					<coordinates>140.95834,38.273728,0.0</coordinates>
				</Point>
			</Placemark>
			<Placemark>
				<styleUrl>#icon-101</styleUrl>
				<name>仙台市立 岡田小学校</name>
				<ExtendedData>
				</ExtendedData>
				<description><![CDATA[仙台市宮城野区岡田字北在家６７<br>設置場所：保健室隣和室]]></description>
				<Point>
					<coordinates>140.978697,38.256766,0.0</coordinates>
				</Point>
			</Placemark>
			<Placemark>
				<styleUrl>#icon-101</styleUrl>
				<name>仙台市立 東仙台小学校</name>
				<ExtendedData>
				</ExtendedData>
				<description><![CDATA[仙台市宮城野区東仙台５丁目２６?１<br>設置場所：職員室]]></description>
				<Point>
					<coordinates>140.912889,38.2775,0.0</coordinates>
				</Point>
			</Placemark>
			<Placemark>
				<styleUrl>#icon-101</styleUrl>
				<name>仙台市立 宮城野小学校</name>
				<ExtendedData>
				</ExtendedData>
				<description><![CDATA[仙台市宮城野区東宮城野２?１<br>設置場所：職員室]]></description>
				<Point>
					<coordinates>140.915943,38.260850000000005,0.0</coordinates>
				</Point>
			</Placemark>
			<Placemark>
				<styleUrl>#icon-101</styleUrl>
				<name>仙台市立 新田小学校</name>
				<ExtendedData>
				</ExtendedData>
				<description><![CDATA[仙台市宮城野区新田４丁目３０?１<br>設置場所：職員室]]></description>
				<Point>
					<coordinates>140.92828,38.276256,0.0</coordinates>
				</Point>
			</Placemark>
			<Placemark>
				<styleUrl>#icon-101</styleUrl>
				<name>仙台市立 福室小学校</name>
				<ExtendedData>
				</ExtendedData>
				<description><![CDATA[仙台市宮城野区福室５丁目１６?１<br>設置場所：職員室]]></description>
				<Point>
					<coordinates>140.971763,38.280393,0.0</coordinates>
				</Point>
			</Placemark>
			<Placemark>
				<styleUrl>#icon-101</styleUrl>
				<name>仙台市立 鶴谷小学校</name>
				<ExtendedData>
				</ExtendedData>
				<description><![CDATA[仙台市宮城野区鶴ケ谷３丁目１７<br>設置場所：職員室]]></description>
				<Point>
					<coordinates>140.910922,38.291008,0.0</coordinates>
				</Point>
			</Placemark>
			<Placemark>
				<styleUrl>#icon-101</styleUrl>
				<name>仙台市立 幸町小学校</name>
				<ExtendedData>
				</ExtendedData>
				<description><![CDATA[仙台市宮城野区幸町２丁目１９－１<br>設置場所：廊下]]></description>
				<Point>
					<coordinates>140.897991,38.276944,0.0</coordinates>
				</Point>
			</Placemark>
			<Placemark>
				<styleUrl>#icon-101</styleUrl>
				<name>仙台市立 鶴谷東小学校</name>
				<ExtendedData>
				</ExtendedData>
				<description><![CDATA[仙台市宮城野区鶴ケ谷六丁目２<br>設置場所：職員室]]></description>
				<Point>
					<coordinates>140.919674,38.290539,0.0</coordinates>
				</Point>
			</Placemark>
			<Placemark>
				<styleUrl>#icon-101</styleUrl>
				<name>仙台市立 燕沢小学校</name>
				<ExtendedData>
				</ExtendedData>
				<description><![CDATA[仙台市宮城野区燕沢東３丁目８?１<br>設置場所：職員室]]></description>
				<Point>
					<coordinates>140.929578,38.288419,0.0</coordinates>
				</Point>
			</Placemark>
			<Placemark>
				<styleUrl>#icon-101</styleUrl>
				<name>仙台市立 中野栄小学校</name>
				<ExtendedData>
				</ExtendedData>
				<description><![CDATA[仙台市宮城野区栄３丁目１２?１<br>設置場所：玄関]]></description>
				<Point>
					<coordinates>140.982419,38.282933,0.0</coordinates>
				</Point>
			</Placemark>
			<Placemark>
				<styleUrl>#icon-101</styleUrl>
				<name>仙台市立 枡江小学校</name>
				<ExtendedData>
				</ExtendedData>
				<description><![CDATA[仙台市宮城野区枡江１５?１<br>設置場所：保健室]]></description>
				<Point>
					<coordinates>140.904334,38.281143,0.0</coordinates>
				</Point>
			</Placemark>
			<Placemark>
				<styleUrl>#icon-101</styleUrl>
				<name>仙台市立 鶴巻小学校</name>
				<ExtendedData>
				</ExtendedData>
				<description><![CDATA[仙台市宮城野区鶴巻１丁目１５?１<br>設置場所：廊下]]></description>
				<Point>
					<coordinates>140.967721,38.262927,0.0</coordinates>
				</Point>
			</Placemark>
			<Placemark>
				<styleUrl>#icon-101</styleUrl>
				<name>仙台市立 東宮城野小学校</name>
				<ExtendedData>
				</ExtendedData>
				<description><![CDATA[仙台市宮城野区東宮城野５?１<br>設置場所：職員室]]></description>
				<Point>
					<coordinates>140.919438,38.259188,0.0</coordinates>
				</Point>
			</Placemark>
			<Placemark>
				<styleUrl>#icon-101</styleUrl>
				<name>仙台市立 田子小学校</name>
				<ExtendedData>
				</ExtendedData>
				<description><![CDATA[仙台市宮城野区田子２丁目１－１<br>設置場所：職員室]]></description>
				<Point>
					<coordinates>140.962379,38.280061,0.0</coordinates>
				</Point>
			</Placemark>
			<Placemark>
				<styleUrl>#icon-101</styleUrl>
				<name>仙台市立 幸町南小学校</name>
				<ExtendedData>
				</ExtendedData>
				<description><![CDATA[仙台市宮城野区幸町５丁目２?１<br>設置場所：職員室]]></description>
				<Point>
					<coordinates>140.899416,38.274096,0.0</coordinates>
				</Point>
			</Placemark>
			<Placemark>
				<styleUrl>#icon-101</styleUrl>
				<name>仙台市立 西山小学校</name>
				<ExtendedData>
				</ExtendedData>
				<description><![CDATA[仙台市宮城野区燕沢２丁目２３?１<br>設置場所：保健室]]></description>
				<Point>
					<coordinates>140.914916,38.283401,0.0</coordinates>
				</Point>
			</Placemark>
			<Placemark>
				<styleUrl>#icon-101</styleUrl>
				<name>仙台市消防局 宮城野消防署</name>
				<ExtendedData>
				</ExtendedData>
				<description><![CDATA[仙台市宮城野区苦竹３丁目６?１<br>設置場所：事務室内]]></description>
				<Point>
					<coordinates>140.929541,38.266184,0.0</coordinates>
				</Point>
			</Placemark>
			<Placemark>
				<styleUrl>#icon-101</styleUrl>
				<name>仙台市消防局 宮城野消防署 高砂分署</name>
				<ExtendedData>
				</ExtendedData>
				<description><![CDATA[仙台市宮城野区高砂１丁目３０?１５<br>設置場所：事務室内]]></description>
				<Point>
					<coordinates>140.973276,38.268497,0.0</coordinates>
				</Point>
			</Placemark>
			<Placemark>
				<styleUrl>#icon-101</styleUrl>
				<name>仙台市消防局 宮城野消防署 岩切出張所</name>
				<ExtendedData>
				</ExtendedData>
				<description><![CDATA[仙台市宮城野区岩切字三所南８８?５<br>設置場所：事務室内]]></description>
				<Point>
					<coordinates>140.945994,38.300943,0.0</coordinates>
				</Point>
			</Placemark>
			<Placemark>
				<styleUrl>#icon-101</styleUrl>
				<name>仙台市消防局 宮城野消防署 原町出張所</name>
				<ExtendedData>
				</ExtendedData>
				<description><![CDATA[仙台市宮城野区原町１丁目３?５４<br>設置場所：事務室内]]></description>
				<Point>
					<coordinates>140.900638,38.264258,0.0</coordinates>
				</Point>
			</Placemark>
			<Placemark>
				<styleUrl>#icon-22</styleUrl>
				<name>サンライズ仙台　管理組合法人</name>
				<ExtendedData>
				</ExtendedData>
				<description><![CDATA[宮城野区榴岡三丁目２－５<br>サンライズ仙台　管理組合法人]]></description>
				<Point>
					<coordinates>140.886687,38.260853,0.0</coordinates>
				</Point>
			</Placemark>
			<Placemark>
				<styleUrl>#icon-22</styleUrl>
				<name>トヨタレンタリース宮城　仙台駅東口店</name>
				<ExtendedData>
				</ExtendedData>
				<description><![CDATA[宮城野区榴岡一丁目５－３<br>株式会社トヨタレンタリース宮城　仙台駅東口店]]></description>
				<Point>
					<coordinates>140.884032,38.257825,0.0</coordinates>
				</Point>
			</Placemark>
			<Placemark>
				<styleUrl>#icon-22</styleUrl>
				<name>東北ゴム株式会社</name>
				<ExtendedData>
				</ExtendedData>
				<description><![CDATA[宮城野区港一丁目１番１２号<br>東北ゴム株式会社]]></description>
				<Point>
					<coordinates>141.002537,38.266068,0.0</coordinates>
				</Point>
			</Placemark>
			<Placemark>
				<styleUrl>#icon-22</styleUrl>
				<name>仙台市環境整備公社　小鶴事業所</name>
				<ExtendedData>
				</ExtendedData>
				<description><![CDATA[宮城野区仙石３－１<br>株式会社　仙台市環境整備公社　小鶴事業所]]></description>
				<Point>
					<coordinates>140.943249,38.27351,0.0</coordinates>
				</Point>
			</Placemark>
			<Placemark>
				<styleUrl>#icon-22</styleUrl>
				<name>宮城県建設センター　仙台港公園管理事務所</name>
				<ExtendedData>
				</ExtendedData>
				<description><![CDATA[宮城野区港二丁目５　仙台港中央公園<br>社団法人　宮城県建設センター<br>仙台港公園管理事務所]]></description>
				<Point>
					<coordinates>140.997216,38.272809,0.0</coordinates>
				</Point>
			</Placemark>
			<Placemark>
				<styleUrl>#icon-22</styleUrl>
				<name>株式会社　こばやし</name>
				<ExtendedData>
				</ExtendedData>
				<description><![CDATA[宮城野区小田原三丁目２－３<br>株式会社　こばやし]]></description>
				<Point>
					<coordinates>140.894149,38.26851500000001,0.0</coordinates>
				</Point>
			</Placemark>
			<Placemark>
				<styleUrl>#icon-22</styleUrl>
				<name>すがわら葬儀社　仙台宮城野斎場　清月記</name>
				<ExtendedData>
				</ExtendedData>
				<description><![CDATA[宮城野区高砂一丁目４－５<br>株式会社　すがわら葬儀社　仙台宮城野斎場　清月記]]></description>
				<Point>
					<coordinates>140.972864,38.272356,0.0</coordinates>
				</Point>
			</Placemark>
			<Placemark>
				<styleUrl>#icon-22</styleUrl>
				<name>後藤工業株式会社</name>
				<ExtendedData>
				</ExtendedData>
				<description><![CDATA[宮城野区扇町四丁目６－４<br>後藤工業株式会社]]></description>
				<Point>
					<coordinates>140.951226,38.26262,0.0</coordinates>
				</Point>
			</Placemark>
			<Placemark>
				<styleUrl>#icon-22</styleUrl>
				<name>仙台アスコン株式会社</name>
				<ExtendedData>
				</ExtendedData>
				<description><![CDATA[宮城野区扇町六丁目２－２１<br>仙台アスコン株式会社]]></description>
				<Point>
					<coordinates>140.955172,38.268658,0.0</coordinates>
				</Point>
			</Placemark>
			<Placemark>
				<styleUrl>#icon-22</styleUrl>
				<name>栄喜工業株式会社</name>
				<ExtendedData>
				</ExtendedData>
				<description><![CDATA[宮城野区燕沢東一丁目１－１０<br>栄喜工業株式会社]]></description>
				<Point>
					<coordinates>140.93133200000003,38.285265,0.0</coordinates>
				</Point>
			</Placemark>
			<Placemark>
				<styleUrl>#icon-101</styleUrl>
				<name>小鶴老人福祉センター</name>
				<ExtendedData>
				</ExtendedData>
				<description><![CDATA[宮城野区仙石２－１<br>設置場所：１階医務室]]></description>
				<Point>
					<coordinates>140.941747,38.273261,0.0</coordinates>
				</Point>
			</Placemark>
			<Placemark>
				<styleUrl>#icon-22</styleUrl>
				<name>協業組合　仙台清掃公社</name>
				<ExtendedData>
				</ExtendedData>
				<description><![CDATA[宮城野区日の出町一丁目７－１５<br>協業組合　仙台清掃公社]]></description>
				<Point>
					<coordinates>140.937096,38.272166,0.0</coordinates>
				</Point>
			</Placemark>
			<Placemark>
				<styleUrl>#icon-22</styleUrl>
				<name>富士古河Ｅ＆Ｃ株式会社　東北支店</name>
				<ExtendedData>
				</ExtendedData>
				<description><![CDATA[宮城野区日の出町一丁目６－３３<br>富士物流ビル１階<br>富士古河Ｅ＆Ｃ株式会社　東北支店]]></description>
				<Point>
					<coordinates>140.935954,38.270777,0.0</coordinates>
				</Point>
			</Placemark>
			<Placemark>
				<styleUrl>#icon-22</styleUrl>
				<name>ヤマトホームコンビニエンス株式会社</name>
				<ExtendedData>
				</ExtendedData>
				<description><![CDATA[宮城野区扇町七丁目４－２５　　３階<br>ヤマトホームコンビニエンス株式会社<br>東北統括支店]]></description>
				<Point>
					<coordinates>140.956974,38.259604,0.0</coordinates>
				</Point>
			</Placemark>
			<Placemark>
				<styleUrl>#icon-101</styleUrl>
				<name>仙台田子市民センター</name>
				<ExtendedData>
				</ExtendedData>
				<description><![CDATA[仙台市宮城野区田子二丁目４－２５<br>設置場所：１階玄関ホール]]></description>
				<Point>
					<coordinates>140.960496,38.279677,0.0</coordinates>
				</Point>
			</Placemark>
			<Placemark>
				<styleUrl>#icon-22</styleUrl>
				<name>ライジング新田店</name>
				<ExtendedData>
				</ExtendedData>
				<description><![CDATA[宮城野区新田東三丁目４－１<br>㈱カネマツ　ライジング新田店]]></description>
				<Point>
					<coordinates>140.936249,38.275312,0.0</coordinates>
				</Point>
			</Placemark>
			<Placemark>
				<styleUrl>#icon-22</styleUrl>
				<name>清水幼稚園</name>
				<ExtendedData>
				</ExtendedData>
				<description><![CDATA[宮城野区清水沼三丁目４－１０<br>学校法人小野学園清水幼稚園]]></description>
				<Point>
					<coordinates>140.901922,38.266704,0.0</coordinates>
				</Point>
			</Placemark>
			<Placemark>
				<styleUrl>#icon-101</styleUrl>
				<name>仙台市消防局 宮城野消防署 鶴谷出張所</name>
				<ExtendedData>
				</ExtendedData>
				<description><![CDATA[仙台市宮城野区鶴ケ谷八丁目１９－６<br>設置場所：事務室内]]></description>
				<Point>
					<coordinates>140.918391,38.289558,0.0</coordinates>
				</Point>
			</Placemark>
			<Placemark>
				<styleUrl>#icon-22</styleUrl>
				<name>ホンダカーズ宮城中央 高砂店</name>
				<ExtendedData>
				</ExtendedData>
				<description><![CDATA[宮城野区出花一丁目１５２<br>株式会社ホンダカーズ宮城中央 高砂店]]></description>
				<Point>
					<coordinates>140.982925,38.278744,0.0</coordinates>
				</Point>
			</Placemark>
			<Placemark>
				<styleUrl>#icon-22</styleUrl>
				<name>高齢者福祉施設　宮城野の里</name>
				<ExtendedData>
				</ExtendedData>
				<description><![CDATA[宮城野区田子字富里２２３<br>高齢者福祉施設 宮城野の里]]></description>
				<Point>
					<coordinates>140.956264,38.276218,0.0</coordinates>
				</Point>
			</Placemark>
			<Placemark>
				<styleUrl>#icon-22</styleUrl>
				<name>宮城県自動車整備商工組合</name>
				<ExtendedData>
				</ExtendedData>
				<description><![CDATA[宮城野区扇町四丁目１－３２<br>宮城県自動車整備商工組合]]></description>
				<Point>
					<coordinates>140.94762400000002,38.264581,0.0</coordinates>
				</Point>
			</Placemark>
			<Placemark>
				<styleUrl>#icon-22</styleUrl>
				<name>三井アウトレットパーク仙台港</name>
				<ExtendedData>
				</ExtendedData>
				<description><![CDATA[宮城野区中野出花１２３<br>三井アウトレットパーク仙台港]]></description>
				<Point>
					<coordinates>140.990306,38.275148,0.0</coordinates>
				</Point>
			</Placemark>
			<Placemark>
				<styleUrl>#icon-22</styleUrl>
				<name>名糖運輸仙台物流センター</name>
				<ExtendedData>
				</ExtendedData>
				<description><![CDATA[宮城野区蒲生二丁目３１－５<br>名糖運輸株式会社仙台物流センター]]></description>
				<Point>
					<coordinates>141.007215,38.26103,0.0</coordinates>
				</Point>
			</Placemark>
			<Placemark>
				<styleUrl>#icon-22</styleUrl>
				<name>夢広場ニューセブン利府街道店</name>
				<ExtendedData>
				</ExtendedData>
				<description><![CDATA[宮城野区岩切一丁目１７－１<br>夢広場ニューセブン利府街道店]]></description>
				<Point>
					<coordinates>140.937858,38.292585,0.0</coordinates>
				</Point>
			</Placemark>
			<Placemark>
				<styleUrl>#icon-22</styleUrl>
				<name>はなぶさ幼稚園</name>
				<ExtendedData>
				</ExtendedData>
				<description><![CDATA[宮城野区小鶴一丁目９－２０<br>はなぶさ幼稚園]]></description>
				<Point>
					<coordinates>140.92798,38.284496,0.0</coordinates>
				</Point>
			</Placemark>
			<Placemark>
				<styleUrl>#icon-22</styleUrl>
				<name>ダイナム宮城仙台新港店</name>
				<ExtendedData>
				</ExtendedData>
				<description><![CDATA[宮城野区中野字神妻７７<br>株式会社ダイナム宮城仙台新港店]]></description>
				<Point>
					<coordinates>140.988498,38.270381,0.0</coordinates>
				</Point>
			</Placemark>
			<Placemark>
				<styleUrl>#icon-22</styleUrl>
				<name>小林内科医院</name>
				<ExtendedData>
				</ExtendedData>
				<description><![CDATA[宮城野区鶴ケ谷七丁目３１－５<br>小林内科医院]]></description>
				<Point>
					<coordinates>140.922218,38.289642,0.0</coordinates>
				</Point>
			</Placemark>
			<Placemark>
				<styleUrl>#icon-22</styleUrl>
				<name>鶴ケ谷希望園</name>
				<ExtendedData>
				</ExtendedData>
				<description><![CDATA[宮城野区鶴ケ谷五丁目１７－１<br>社会福祉法人希望園　鶴ケ谷希望園]]></description>
				<Point>
					<coordinates>140.914158,38.294421,0.0</coordinates>
				</Point>
			</Placemark>
			<Placemark>
				<styleUrl>#icon-22</styleUrl>
				<name>介護老人福祉施設 かむりの里</name>
				<ExtendedData>
				</ExtendedData>
				<description><![CDATA[宮城野区岩切字東河原３５２－３<br>介護老人福祉施設　かむりの里]]></description>
				<Point>
					<coordinates>140.952181,38.300795,0.0</coordinates>
				</Point>
			</Placemark>
			<Placemark>
				<styleUrl>#icon-22</styleUrl>
				<name>介護老人保健施設 コジーケアホーム</name>
				<ExtendedData>
				</ExtendedData>
				<description><![CDATA[宮城野区岩切字稲荷１４<br>医療法人社団康陽会 <br>介護老人保健施設コジーケアホーム]]></description>
				<Point>
					<coordinates>140.938926,38.300771,0.0</coordinates>
				</Point>
			</Placemark>
			<Placemark>
				<styleUrl>#icon-22</styleUrl>
				<name>歯科クリニック東仙台</name>
				<ExtendedData>
				</ExtendedData>
				<description><![CDATA[宮城野区東仙台二丁目１８－５６<br>歯科クリニック東仙台]]></description>
				<Point>
					<coordinates>140.917645,38.278313,0.0</coordinates>
				</Point>
			</Placemark>
			<Placemark>
				<styleUrl>#icon-22</styleUrl>
				<name>千葉内科クリニック</name>
				<ExtendedData>
				</ExtendedData>
				<description><![CDATA[宮城野区栄二丁目２５－７<br>医療法人社団千葉内科クリニック]]></description>
				<Point>
					<coordinates>140.98186,38.280869,0.0</coordinates>
				</Point>
			</Placemark>
			<Placemark>
				<styleUrl>#icon-22</styleUrl>
				<name>まどか鶴ヶ谷</name>
				<ExtendedData>
				</ExtendedData>
				<description><![CDATA[宮城野区鶴ケ谷六丁目７－１<br>株式会社ベネッセケアスタイルまどか鶴ヶ谷]]></description>
				<Point>
					<coordinates>140.923712,38.290583,0.0</coordinates>
				</Point>
			</Placemark>
			<Placemark>
				<styleUrl>#icon-22</styleUrl>
				<name>まひと内科クリニック</name>
				<ExtendedData>
				</ExtendedData>
				<description><![CDATA[宮城野区高砂一丁目２４－３９<br>医療法人中真会<br>木村貞之進記念まひと内科クリニック]]></description>
				<Point>
					<coordinates>140.973247,38.271604,0.0</coordinates>
				</Point>
			</Placemark>
			<Placemark>
				<styleUrl>#icon-22</styleUrl>
				<name>東北厚生年金病院</name>
				<ExtendedData>
				</ExtendedData>
				<description><![CDATA[宮城野区福室一丁目１２－１<br>東北厚生年金病院]]></description>
				<Point>
					<coordinates>140.966735,38.269265,0.0</coordinates>
				</Point>
			</Placemark>
			<Placemark>
				<styleUrl>#icon-22</styleUrl>
				<name>ケーズデンキ仙台港店</name>
				<ExtendedData>
				</ExtendedData>
				<description><![CDATA[宮城野区中野字神妻７７<br>株式会社デンコードー ケーズデンキ仙台港店]]></description>
				<Point>
					<coordinates>140.988128,38.272251,0.0</coordinates>
				</Point>
			</Placemark>
			<Placemark>
				<styleUrl>#icon-101</styleUrl>
				<name>仙台市生涯学習センター</name>
				<ExtendedData>
				</ExtendedData>
				<description><![CDATA[宮城野区榴岡四丁目１－８　パルシティ仙台<br>設置場所：５階事務室]]></description>
				<Point>
					<coordinates>140.887395,38.259211,0.0</coordinates>
				</Point>
			</Placemark>
			<Placemark>
				<styleUrl>#icon-101</styleUrl>
				<name>榴ｹ岡市民センター</name>
				<ExtendedData>
				</ExtendedData>
				<description><![CDATA[宮城野区五輪一丁目３－１<br>設置場所：１階事務室]]></description>
				<Point>
					<coordinates>140.895549,38.2592484,0.0</coordinates>
				</Point>
			</Placemark>
			<Placemark>
				<styleUrl>#icon-101</styleUrl>
				<name>幸町市民センター</name>
				<ExtendedData>
				</ExtendedData>
				<description><![CDATA[宮城野区幸町三丁目１３－１<br>設置場所：１階遊戯室入口]]></description>
				<Point>
					<coordinates>140.903327,38.276778,0.0</coordinates>
				</Point>
			</Placemark>
			<Placemark>
				<styleUrl>#icon-101</styleUrl>
				<name>幸町南児童館</name>
				<ExtendedData>
				</ExtendedData>
				<description><![CDATA[宮城野区大梶１０－２７<br>設置場所：事務室内]]></description>
				<Point>
					<coordinates>140.902893,38.272558,0.0</coordinates>
				</Point>
			</Placemark>
			<Placemark>
				<styleUrl>#icon-101</styleUrl>
				<name>燕沢コミュニティセンター</name>
				<ExtendedData>
				</ExtendedData>
				<description><![CDATA[宮城野区燕沢東三丁目９－２<br>設置場所：多目的ホール入口]]></description>
				<Point>
					<coordinates>140.929838,38.28928,0.0</coordinates>
				</Point>
			</Placemark>
			<Placemark>
				<styleUrl>#icon-22</styleUrl>
				<name>ダイナム仙台統括事務所</name>
				<ExtendedData>
				</ExtendedData>
				<description><![CDATA[宮城野区榴岡三丁目７－２２<br>仙台東書ビル４階<br>株式会社ダイナム仙台統括事務所]]></description>
				<Point>
					<coordinates>140.889045,38.260142,0.0</coordinates>
				</Point>
			</Placemark>
			<Placemark>
				<styleUrl>#icon-22</styleUrl>
				<name>アンパンマンミュージアム</name>
				<ExtendedData>
				</ExtendedData>
				<description><![CDATA[宮城野区鉄砲町１４５<br>仙台アンパンマンこどもミュージアム＆モール]]></description>
				<Point>
					<coordinates>140.887352,38.26413,0.0</coordinates>
				</Point>
			</Placemark>
			<Placemark>
				<styleUrl>#icon-101</styleUrl>
				<name>枡江コミュニティセンター</name>
				<ExtendedData>
				</ExtendedData>
				<description><![CDATA[宮城野区安養寺二丁目２－１<br>設置場所：玄関ホール]]></description>
				<Point>
					<coordinates>140.90606900000003,38.284324,0.0</coordinates>
				</Point>
			</Placemark>
			<Placemark>
				<styleUrl>#icon-22</styleUrl>
				<name>社会福祉法人みやぎ会にこトピア萩野町</name>
				<ExtendedData>
				</ExtendedData>
				<description><![CDATA[宮城野区萩野町二丁目８－１２<br>社会福祉法人みやぎ会にこトピア萩野町]]></description>
				<Point>
					<coordinates>140.915156,38.254922,0.0</coordinates>
				</Point>
			</Placemark>
			<Placemark>
				<styleUrl>#icon-22</styleUrl>
				<name>独立行政法人産業技術総合研究所東北センターＣ棟</name>
				<ExtendedData>
				</ExtendedData>
				<description><![CDATA[宮城野区苦竹四丁目２－１<br>独立行政法人産業技術総合研究所東北センターＣ棟]]></description>
				<Point>
					<coordinates>140.9295162,38.264122,0.0</coordinates>
				</Point>
			</Placemark>
			<Placemark>
				<styleUrl>#icon-22</styleUrl>
				<name>（株）ミカド金属</name>
				<ExtendedData>
				</ExtendedData>
				<description><![CDATA[宮城野区福室一丁目６－１４<br>（株）ミカド金属]]></description>
				<Point>
					<coordinates>140.965708,38.271172,0.0</coordinates>
				</Point>
			</Placemark>
			<Placemark>
				<styleUrl>#icon-22</styleUrl>
				<name>ちば産婦人科クリニック</name>
				<ExtendedData>
				</ExtendedData>
				<description><![CDATA[宮城野区鶴ケ谷四丁目２８－２<br>ちば産婦人科クリニック]]></description>
				<Point>
					<coordinates>140.908204,38.293795,0.0</coordinates>
				</Point>
			</Placemark>
			<Placemark>
				<styleUrl>#icon-22</styleUrl>
				<name>株式会社オーカム</name>
				<ExtendedData>
				</ExtendedData>
				<description><![CDATA[宮城野区扇町四丁目４－１３<br>株式会社オーカム]]></description>
				<Point>
					<coordinates>140.949526,38.260302,0.0</coordinates>
				</Point>
			</Placemark>
			<Placemark>
				<styleUrl>#icon-22</styleUrl>
				<name>テルウェル仙台ビル</name>
				<ExtendedData>
				</ExtendedData>
				<description><![CDATA[宮城野区榴岡四丁目２－８<br>テルウェル東日本株式会社東北事業本部]]></description>
				<Point>
					<coordinates>140.888522,38.25908,0.0</coordinates>
				</Point>
			</Placemark>
			<Placemark>
				<styleUrl>#icon-22</styleUrl>
				<name>宮城県消防学校</name>
				<ExtendedData>
				</ExtendedData>
				<description><![CDATA[宮城野区幸町四丁目７－１<br>宮城県消防学校]]></description>
				<Point>
					<coordinates>140.906648,38.277986,0.0</coordinates>
				</Point>
			</Placemark>
			<Placemark>
				<styleUrl>#icon-101</styleUrl>
				<name>仙台市宮城野区文化センター</name>
				<ExtendedData>
				</ExtendedData>
				<description><![CDATA[宮城野区五輪二丁目１２－７０<br>設置場所：センター１階受付]]></description>
				<Point>
					<coordinates>140.909775,38.265436,0.0</coordinates>
				</Point>
			</Placemark>
			<Placemark>
				<styleUrl>#icon-22</styleUrl>
				<name>ソフィアガーデン仙台・鶴巻</name>
				<ExtendedData>
				</ExtendedData>
				<description><![CDATA[宮城野区鶴巻二丁目２－２８<br>サービス付き高齢者向け住宅<br>ソフィアガーデン仙台・鶴巻]]></description>
				<Point>
					<coordinates>140.965142,38.260407,0.0</coordinates>
				</Point>
			</Placemark>
			<Placemark>
				<styleUrl>#icon-22</styleUrl>
				<name>仙台ガーデンパレス</name>
				<ExtendedData>
				</ExtendedData>
				<description><![CDATA[宮城野区榴岡四丁目１－５<br>日本私立学校振興・共済事業団　宮城会館<br>仙台ガーデンパレス]]></description>
				<Point>
					<coordinates>140.886751,38.259219,0.0</coordinates>
				</Point>
			</Placemark>
			<Placemark>
				<styleUrl>#icon-101</styleUrl>
				<name>仙台市東部市民センター</name>
				<ExtendedData>
				</ExtendedData>
				<description><![CDATA[宮城野区平成一丁目３－２７<br>設置場所：１階事務室]]></description>
				<Point>
					<coordinates>140.915872,38.270157,0.0</coordinates>
				</Point>
			</Placemark>
			<Placemark>
				<styleUrl>#icon-22</styleUrl>
				<name>メルパルク仙台</name>
				<ExtendedData>
				</ExtendedData>
				<description><![CDATA[宮城野区榴岡五丁目６－５１<br>メルパルク仙台]]></description>
				<Point>
					<coordinates>140.891789,38.257387,0.0</coordinates>
				</Point>
			</Placemark>
			<Placemark>
				<styleUrl>#icon-22</styleUrl>
				<name>東部自動車学校</name>
				<ExtendedData>
				</ExtendedData>
				<description><![CDATA[宮城野区福住町１６－４４<br>東部自動車学校]]></description>
				<Point>
					<coordinates>140.955995,38.274735,0.0</coordinates>
				</Point>
			</Placemark>
			<Placemark>
				<styleUrl>#icon-101</styleUrl>
				<name>仙台市福室市民センター</name>
				<ExtendedData>
				</ExtendedData>
				<description><![CDATA[宮城野区福室五丁目９－３６<br>設置場所：１階事務室]]></description>
				<Point>
					<coordinates>140.971112,38.279165,0.0</coordinates>
				</Point>
			</Placemark>
			<Placemark>
				<styleUrl>#icon-101</styleUrl>
				<name>南蒲生浄化センター岡田会館</name>
				<ExtendedData>
				</ExtendedData>
				<description><![CDATA[宮城野区蒲生字鍋沼４２<br>設置場所：ロビー]]></description>
				<Point>
					<coordinates>140.988225,38.253987,0.0</coordinates>
				</Point>
			</Placemark>
			<Placemark>
				<styleUrl>#icon-22</styleUrl>
				<name>まんてん堂こどもクリニック</name>
				<ExtendedData>
				</ExtendedData>
				<description><![CDATA[宮城野区新田東三丁目２－７<br>まんてん堂こどもクリニック]]></description>
				<Point>
					<coordinates>140.937896,38.275152,0.0</coordinates>
				</Point>
			</Placemark>
			<Placemark>
				<styleUrl>#icon-22</styleUrl>
				<name>宮城県立仙台第三高等学校</name>
				<ExtendedData>
				</ExtendedData>
				<description><![CDATA[宮城野区鶴ケ谷一丁目１９<br>宮城県立仙台第三高等学校]]></description>
				<Point>
					<coordinates>140.90955,38.286972,0.0</coordinates>
				</Point>
			</Placemark>
			<Placemark>
				<styleUrl>#icon-22</styleUrl>
				<name>あけの星荘</name>
				<ExtendedData>
				</ExtendedData>
				<description><![CDATA[宮城野区安養寺二丁目２４－１<br>軽費老人ホーム あけの星荘]]></description>
				<Point>
					<coordinates>140.904958,38.28616,0.0</coordinates>
				</Point>
			</Placemark>
			<Placemark>
				<styleUrl>#icon-22</styleUrl>
				<name>エスアールエス㈱</name>
				<ExtendedData>
				</ExtendedData>
				<description><![CDATA[宮城野区扇町三丁目９－２<br>エスアールエス株式会社<br>プロマックス事業部仙台営業所]]></description>
				<Point>
					<coordinates>140.943443,38.260512,0.0</coordinates>
				</Point>
			</Placemark>
			<Placemark>
				<styleUrl>#icon-22</styleUrl>
				<name>千鳥屋製麺所</name>
				<ExtendedData>
				</ExtendedData>
				<description><![CDATA[宮城野区福室字境四番６５－１<br>株式会社千鳥屋製麺所]]></description>
				<Point>
					<coordinates>140.976246,38.275645,0.0</coordinates>
				</Point>
			</Placemark>
			<Placemark>
				<styleUrl>#icon-101</styleUrl>
				<name>教育センター</name>
				<ExtendedData>
				</ExtendedData>
				<description><![CDATA[宮城野区鶴ケ谷北一丁目１９－１<br>設置場所：１階事務室]]></description>
				<Point>
					<coordinates>140.917076,38.297022,0.0</coordinates>
				</Point>
			</Placemark>
			<Placemark>
				<styleUrl>#icon-101</styleUrl>
				<name>杜のひろば宮城野</name>
				<ExtendedData>
				</ExtendedData>
				<description><![CDATA[宮城野区五輪一丁目４－２２<br>設置場所：１階ロビー]]></description>
				<Point>
					<coordinates>140.900106,38.261468,0.0</coordinates>
				</Point>
			</Placemark>
			<Placemark>
				<styleUrl>#icon-22</styleUrl>
				<name>仙台介護タクシー</name>
				<ExtendedData>
				</ExtendedData>
				<description><![CDATA[宮城野区東仙台六丁目１４－４５<br>株式会社仙台介護タクシー]]></description>
				<Point>
					<coordinates>140.917736,38.279576,0.0</coordinates>
				</Point>
			</Placemark>
			<Placemark>
				<styleUrl>#icon-22</styleUrl>
				<name>タイヤガーデン仙台東</name>
				<ExtendedData>
				</ExtendedData>
				<description><![CDATA[宮城野区福室四丁目１８-１３<br>株式会社ヨコハマタイヤルック宮城]]></description>
				<Point>
					<coordinates>140.973945,38.275552,0.0</coordinates>
				</Point>
			</Placemark>
			<Placemark>
				<styleUrl>#icon-22</styleUrl>
				<name>中央管工業株式会社</name>
				<ExtendedData>
				</ExtendedData>
				<description><![CDATA[宮城野区新田三丁目２１－５<br>中央管工業㈱]]></description>
				<Point>
					<coordinates>140.930509,38.278319,0.0</coordinates>
				</Point>
			</Placemark>
			<Placemark>
				<styleUrl>#icon-22</styleUrl>
				<name>株式会社ダイワ技術サービス</name>
				<ExtendedData>
				</ExtendedData>
				<description><![CDATA[宮城野区五輪一丁目８－３　ＦＫビル　<br>株式会社ダイワ技術サービス]]></description>
				<Point>
					<coordinates>140.902043,38.263357,0.0</coordinates>
				</Point>
			</Placemark>
			<Placemark>
				<styleUrl>#icon-22</styleUrl>
				<name>伸和興業株式会社</name>
				<ExtendedData>
				</ExtendedData>
				<description><![CDATA[宮城野区日の出町二丁目４－８　<br>伸和興業株式会社]]></description>
				<Point>
					<coordinates>140.936439,38.266655,0.0</coordinates>
				</Point>
			</Placemark>
			<Placemark>
				<styleUrl>#icon-22</styleUrl>
				<name>キャタピラー東北株式会社　仙台営業所</name>
				<ExtendedData>
				</ExtendedData>
				<description><![CDATA[宮城野区扇町三丁目5-15　<br>キャタピラー東北株式会社　仙台営業所]]></description>
				<Point>
					<coordinates>140.940425,38.261751,0.0</coordinates>
				</Point>
			</Placemark>
			<Placemark>
				<styleUrl>#icon-22</styleUrl>
				<name>東仙台デイサービスセンター</name>
				<ExtendedData>
				</ExtendedData>
				<description><![CDATA[宮城野区新田三丁目28-20　<br>アサヒサンクリーン株式会社　東仙台デイサービスセンター]]></description>
				<Point>
					<coordinates>140.9279783,38.2802887,0.0</coordinates>
				</Point>
			</Placemark>
			<Placemark>
				<styleUrl>#icon-22</styleUrl>
				<name>重吉興業㈱仙台支店</name>
				<ExtendedData>
				</ExtendedData>
				<description><![CDATA[宮城野区中野字新田1‐1　<br>重吉興業㈱仙台支店　]]></description>
				<Point>
					<coordinates>141.00661400000004,38.2771146,0.0</coordinates>
				</Point>
			</Placemark>
			<Placemark>
				<styleUrl>#icon-22</styleUrl>
				<name>株式会社アストモスガスセンター東北</name>
				<ExtendedData>
				</ExtendedData>
				<description><![CDATA[宮城野区扇町一丁目7－8　<br>株式会社アストモスガスセンター東北]]></description>
				<Point>
					<coordinates>140.9472929,38.2710682,0.0</coordinates>
				</Point>
			</Placemark>
			<Placemark>
				<styleUrl>#icon-22</styleUrl>
				<name>ショートステイはるかぜ</name>
				<ExtendedData>
				</ExtendedData>
				<description><![CDATA[宮城野区東仙台五丁目1－26　<br>ショートステイはるかぜ]]></description>
				<Point>
					<coordinates>140.9136486,38.2746553,0.0</coordinates>
				</Point>
			</Placemark>
			<Placemark>
				<styleUrl>#icon-503-EE9C96</styleUrl>
				<name>歴史民俗資料館</name>
				<ExtendedData>
				</ExtendedData>
				<description><![CDATA[宮城野区五輪一丁目3－7　<br>設置場所：1階事務室]]></description>
				<Point>
					<coordinates>140.8983386,38.2611335,0.0</coordinates>
				</Point>
			</Placemark>
			<Placemark>
				<styleUrl>#icon-503-EE9C96</styleUrl>
				<name>鶴ケ谷第二市営住宅９A1棟</name>
				<ExtendedData>
				</ExtendedData>
				<description><![CDATA[宮城野区鶴ケ谷六丁目16番地内　<br>設置場所：1階北側集合ポスト下]]></description>
				<Point>
					<coordinates>140.9211937,38.2930691,0.0</coordinates>
				</Point>
			</Placemark>
			<Placemark>
				<styleUrl>#icon-503-EE9C96</styleUrl>
				<name>仙台市立 荒浜小学校 （東宮城野小学校内）</name>
				<ExtendedData>
				</ExtendedData>
				<description><![CDATA[仙台市宮城野区東宮城野５?１<br>設置場所：廊下]]></description>
				<Point>
					<coordinates>140.9196675,38.2592043,0.0</coordinates>
				</Point>
			</Placemark>
			<Placemark>
				<styleUrl>#icon-503-EE9C96</styleUrl>
				<name>仙台市立 中野小学校 （中野栄小学校内）</name>
				<ExtendedData>
				</ExtendedData>
				<description><![CDATA[仙台市宮城野区栄３丁目１２?１<br>設置場所：職員室]]></description>
				<Point>
					<coordinates>140.9819806,38.282989,0.0</coordinates>
				</Point>
			</Placemark>
			<Placemark>
				<styleUrl>#icon-503-EE9C96</styleUrl>
				<name>原町児童館</name>
				<ExtendedData>
				</ExtendedData>
				<description><![CDATA[宮城野区五輪二丁目１２－７０<br>設置場所：事務室]]></description>
				<Point>
					<coordinates>140.9099525,38.265535,0.0</coordinates>
				</Point>
			</Placemark>
			<Placemark>
				<styleUrl>#icon-503-EE9C96</styleUrl>
				<name>高砂市民センター</name>
				<ExtendedData>
				</ExtendedData>
				<description><![CDATA[宮城野区高砂一丁目24－9　<br>設置場所：事務室付近廊下]]></description>
				<Point>
					<coordinates>140.9737676,38.2704627,0.0</coordinates>
				</Point>
			</Placemark>
			<Placemark>
				<styleUrl>#icon-503-EE9C96</styleUrl>
				<name>岩切市民センター</name>
				<ExtendedData>
				</ExtendedData>
				<description><![CDATA[宮城野区岩切字三所南88－2　<br>設置場所：ロビー]]></description>
				<Point>
					<coordinates>140.945646,38.300762,0.0</coordinates>
				</Point>
			</Placemark>
			<Placemark>
				<styleUrl>#icon-503-EE9C96</styleUrl>
				<name>鶴ケ谷市民センター</name>
				<ExtendedData>
				</ExtendedData>
				<description><![CDATA[宮城野区鶴ケ谷二丁目8－7　<br>設置場所：鶴ケ谷ビル2階市民センター内事務室]]></description>
				<Point>
					<coordinates>140.9133603,38.2910345,0.0</coordinates>
				</Point>
			</Placemark>
			<Placemark>
				<styleUrl>#icon-22</styleUrl>
				<name>東北学院中学校</name>
				<ExtendedData>
				</ExtendedData>
				<description><![CDATA[宮城野区小鶴字高野１２３－１<br>東北学院中学校]]></description>
				<Point>
					<coordinates>140.94386910000003,38.2764746,0.0</coordinates>
				</Point>
			</Placemark>
			<Placemark>
				<styleUrl>#icon-22</styleUrl>
				<name>独立行政法人産業技術総合研究所東北センターとうほくOSL棟</name>
				<ExtendedData>
				</ExtendedData>
				<description><![CDATA[宮城野区苦竹四丁目２－１<br>独立行政法人産業技術総合研究所東北センターとうほくOSL棟]]></description>
				<Point>
					<coordinates>140.9294683,38.2646484,0.0</coordinates>
				</Point>
			</Placemark>
			<Placemark>
				<styleUrl>#icon-22</styleUrl>
				<name>七十七銀行　卸町支店</name>
				<ExtendedData>
				</ExtendedData>
				<description><![CDATA[宮城野区萩野町三丁目９－１<br>株式会社七十七銀行　卸町支店]]></description>
				<Point>
					<coordinates>140.9202603,38.2571592,0.0</coordinates>
				</Point>
			</Placemark>
			<Placemark>
				<styleUrl>#icon-22</styleUrl>
				<name>株式会社サイコー</name>
				<ExtendedData>
				</ExtendedData>
				<description><![CDATA[岩切分台１丁目８?４<br>株式会社　サイコー　　施設他収集運搬車両９台]]></description>
				<Point>
					<coordinates>140.9589659,38.3055336,0.0</coordinates>
				</Point>
			</Placemark>
			<Placemark>
				<styleUrl>#icon-22</styleUrl>
				<name>株式会社サイコー　仙台中央資源化センター</name>
				<ExtendedData>
				</ExtendedData>
				<description><![CDATA[宮城野区岩切字稲荷１６０<br>株式会社サイコー　仙台中央資源化センター]]></description>
				<Point>
					<coordinates>140.9335345,38.2972582,0.0</coordinates>
				</Point>
			</Placemark>
			<Placemark>
				<styleUrl>#icon-22</styleUrl>
				<name>株式会社サイコー　仙台港資源化センター</name>
				<ExtendedData>
				</ExtendedData>
				<description><![CDATA[宮城野区蒲生二丁目２－１<br>株式会社サイコー　仙台港資源化センター]]></description>
				<Point>
					<coordinates>141.0004851,38.2622876,0.0</coordinates>
				</Point>
			</Placemark>
			<Placemark>
				<styleUrl>#icon-503-EE9C96</styleUrl>
				<name>仙台市交通局東仙台営業所</name>
				<ExtendedData>
				</ExtendedData>
				<description><![CDATA[宮城野区燕沢一丁目２７－１０<br>仙台市交通局東仙台営業所<br>設置場所：事務室内]]></description>
				<Point>
					<coordinates>140.9259707,38.2826237,0.0</coordinates>
				</Point>
			</Placemark>
		</Folder>
		<Style id='icon-101'>
			<IconStyle>
				<scale>1.1</scale>
				<Icon>
					<href>http://tmizu23.github.io/tmizu23_gsimaps/custom_data/aed.png</href>
				</Icon>
			</IconStyle>
		</Style>
		<Style id='icon-22'>
			<IconStyle>
				<scale>1.1</scale>
				<Icon>
					<href>http://tmizu23.github.io/tmizu23_gsimaps/custom_data/aed.png</href>
				</Icon>
			</IconStyle>
		</Style>
		<Style id='icon-503-EE9C96'>
			<IconStyle>
				<color>ff969CEE</color>
				<scale>1.1</scale>
				<Icon>
					<href>http://tmizu23.github.io/tmizu23_gsimaps/custom_data/aed.png</href>
				</Icon>
			</IconStyle>
		</Style>
	</Document>
</kml>