名称,住所,避難場所面積,避難場所の収容可能人員,避難施設の収容可能人員,URL,コメント,電話番号,写真,担当課,経度,緯度,分類
地域避難場所（通町公園）,仙台市青葉区青葉町183-2,"2,237(㎡)","1,100(人)",,http://www.city.sendai.jp/kurashi/shobo/saigai/1188545_1388.html,指定避難所の確保がむずかしい地域の一時的な避難広場で，比較的大きい公園などが指定されています。,,,危機管理室減災推進課,140.8633048,38.28107685,地域避難場所
地域避難場所（広瀬川澱緑地）,仙台市青葉区角五郎１丁目地先,"24,533(㎡)","12,200(人)",,http://www.city.sendai.jp/kurashi/shobo/saigai/1188545_1388.html,指定避難所の確保がむずかしい地域の一時的な避難広場で，比較的大きい公園などが指定されています。,,,危機管理室減災推進課,140.8495641,38.26358765,地域避難場所
地域避難場所（広瀬川牛越緑地）,仙台市青葉区荒巻字三居沢地先,"26,039(㎡)","13,000(人)",,http://www.city.sendai.jp/kurashi/shobo/saigai/1188545_1388.html,指定避難所の確保がむずかしい地域の一時的な避難広場で，比較的大きい公園などが指定されています。,,,危機管理室減災推進課,140.8412129,38.26843769,地域避難場所
地域避難場所（北三番丁公園）,仙台市青葉区木町通1-343,"4,357(㎡)","2,100(人)",,http://www.city.sendai.jp/kurashi/shobo/saigai/1188545_1388.html,指定避難所の確保がむずかしい地域の一時的な避難広場で，比較的大きい公園などが指定されています。,,,危機管理室減災推進課,140.8644433,38.27050162,地域避難場所
地域避難場所（勾当台公園）,仙台市青葉区本町3-9-2 外,"26,887(㎡)","13,400(人)",,http://www.city.sendai.jp/kurashi/shobo/saigai/1188545_1388.html,指定避難所の確保がむずかしい地域の一時的な避難広場で，比較的大きい公園などが指定されています。,,,危機管理室減災推進課,140.8720106,38.26733893,地域避難場所
地域避難場所（錦町公園）,仙台市青葉区本町2-21-1,"17,381(㎡)","8,600(人)",,http://www.city.sendai.jp/kurashi/shobo/saigai/1188545_1388.html,指定避難所の確保がむずかしい地域の一時的な避難広場で，比較的大きい公園などが指定されています。,,,危機管理室減災推進課,140.875185,38.26614362,地域避難場所
地域避難場所（宮城教育大学付属小・中学校）,仙台市青葉区上杉6-4-1,"17,604(㎡)","8,800(人)",,http://www.city.sendai.jp/kurashi/shobo/saigai/1188545_1388.html,指定避難所の確保がむずかしい地域の一時的な避難広場で，比較的大きい公園などが指定されています。,,,危機管理室減災推進課,140.8765701,38.27721967,地域避難場所
地域避難場所（上杉公園）,仙台市青葉区上杉4-239-3 外,"4,377(㎡)","2,100(人)",,http://www.city.sendai.jp/kurashi/shobo/saigai/1188545_1388.html,指定避難所の確保がむずかしい地域の一時的な避難広場で，比較的大きい公園などが指定されています。,,,危機管理室減災推進課,140.8798151,38.27125147,地域避難場所
地域避難場所（常盤木学園高等学校）,仙台市青葉区小田原4-3-20,"2,600(㎡)","1,300(人)",,http://www.city.sendai.jp/kurashi/shobo/saigai/1188545_1388.html,指定避難所の確保がむずかしい地域の一時的な避難広場で，比較的大きい公園などが指定されています。,,,危機管理室減災推進課,140.8904461,38.26931545,地域避難場所
地域避難場所（評定河原グラウンド）,仙台市青葉区花壇70-1,"27,203(㎡)","13,600(人)",,http://www.city.sendai.jp/kurashi/shobo/saigai/1188545_1388.html,指定避難所の確保がむずかしい地域の一時的な避難広場で，比較的大きい公園などが指定されています。,,,危機管理室減災推進課,140.8645957,38.25485758,地域避難場所
地域避難場所（宮城広瀬総合運動場）,仙台市青葉区上愛子字松原39-1,"30,240(㎡)","15,100(人)",,http://www.city.sendai.jp/kurashi/shobo/saigai/1188545_1388.html,指定避難所の確保がむずかしい地域の一時的な避難広場で，比較的大きい公園などが指定されています。,,,危機管理室減災推進課,140.7394572,38.27341867,地域避難場所
地域避難場所（宮城県仙台第二高等学校）,仙台市青葉区澱橋通1,"20,000(㎡)","10,000(人)",,http://www.city.sendai.jp/kurashi/shobo/saigai/1188545_1388.html,指定避難所の確保がむずかしい地域の一時的な避難広場で，比較的大きい公園などが指定されています。,,,危機管理室減災推進課,140.8570417,38.26367647,地域避難場所
地域避難場所（中山とびのこ公園）,仙台市青葉区中山2丁目16-17番地内,"11,631(㎡)","5,800(人)",,http://www.city.sendai.jp/kurashi/shobo/saigai/1188545_1388.html,指定避難所の確保がむずかしい地域の一時的な避難広場で，比較的大きい公園などが指定されています。,,,危機管理室減災推進課,140.8454236,38.28871675,地域避難場所
地域避難場所（中山公園）,仙台市青葉区中山7丁目21番地内,"5,282(㎡)","2,600(人)",,http://www.city.sendai.jp/kurashi/shobo/saigai/1188545_1388.html,指定避難所の確保がむずかしい地域の一時的な避難広場で，比較的大きい公園などが指定されています。,,,危機管理室減災推進課,140.8339491,38.29660748,地域避難場所
地域避難場所（朴沢学園サッカーグラウンド）,仙台市青葉区川平3丁目21～24番地内,"25,000(㎡)","12,500(人)",,http://www.city.sendai.jp/kurashi/shobo/saigai/1188545_1388.html,指定避難所の確保がむずかしい地域の一時的な避難広場で，比較的大きい公園などが指定されています。,,,危機管理室減災推進課,140.8414275,38.30481025,地域避難場所
地域避難場所（宮城県仙台第三高等学校）,仙台市宮城野区鶴ケ谷1-19,"30,161(㎡)","15,000(人)",,http://www.city.sendai.jp/kurashi/shobo/saigai/1188545_1388.html,指定避難所の確保がむずかしい地域の一時的な避難広場で，比較的大きい公園などが指定されています。,,,危機管理室減災推進課,140.9093095,38.286252,地域避難場所
地域避難場所（宮城県消防学校）,仙台市宮城野区幸町4-4-1,"7,200(㎡)","3,600(人)",,http://www.city.sendai.jp/kurashi/shobo/saigai/1188545_1388.html,指定避難所の確保がむずかしい地域の一時的な避難広場で，比較的大きい公園などが指定されています。,,,危機管理室減災推進課,140.9068095,38.27619276,地域避難場所
地域避難場所（清水沼公園）,仙台市宮城野区清水沼1-17-1,"7,869(㎡)","3,900(人)",,http://www.city.sendai.jp/kurashi/shobo/saigai/1188545_1388.html,指定避難所の確保がむずかしい地域の一時的な避難広場で，比較的大きい公園などが指定されています。,,,危機管理室減災推進課,140.8980256,38.26591555,地域避難場所
地域避難場所（扇町一丁目公園）,仙台市宮城野区扇町1-4,"35,246(㎡)","17,600(人)",,http://www.city.sendai.jp/kurashi/shobo/saigai/1188545_1388.html,指定避難所の確保がむずかしい地域の一時的な避難広場で，比較的大きい公園などが指定されています。,,,危機管理室減災推進課,140.943137,38.27163341,地域避難場所
地域避難場所（日の出町公園）,仙台市宮城野区日の出町3-6,"28,922(㎡)","14,400(人)",,http://www.city.sendai.jp/kurashi/shobo/saigai/1188545_1388.html,指定避難所の確保がむずかしい地域の一時的な避難広場で，比較的大きい公園などが指定されています。,,,危機管理室減災推進課,140.9333944,38.2636558,地域避難場所
地域避難場所（扇町四丁目公園）,仙台市宮城野区扇町4-9-1,"26,826(㎡)","13,400(人)",,http://www.city.sendai.jp/kurashi/shobo/saigai/1188545_1388.html,指定避難所の確保がむずかしい地域の一時的な避難広場で，比較的大きい公園などが指定されています。,,,危機管理室減災推進課,140.9526888,38.26480329,地域避難場所
地域避難場所（福田町南一丁目公園）,仙台市宮城野区福田町南1-1007,"16,093(㎡)","8,000(人)",,http://www.city.sendai.jp/kurashi/shobo/saigai/1188545_1388.html,指定避難所の確保がむずかしい地域の一時的な避難広場で，比較的大きい公園などが指定されています。,,,危機管理室減災推進課,140.9609204,38.25937117,地域避難場所
地域避難場所（高砂一丁目公園）,仙台市宮城野区高砂1-23-1,"10,123(㎡)","5,000(人)",,http://www.city.sendai.jp/kurashi/shobo/saigai/1188545_1388.html,指定避難所の確保がむずかしい地域の一時的な避難広場で，比較的大きい公園などが指定されています。,,,危機管理室減災推進課,140.9724262,38.27081107,地域避難場所
地域避難場所（出花二丁目公園）,仙台市宮城野区出花2-7-9,"3,594(㎡)","1,700(人)",,http://www.city.sendai.jp/kurashi/shobo/saigai/1188545_1388.html,指定避難所の確保がむずかしい地域の一時的な避難広場で，比較的大きい公園などが指定されています。,,,危機管理室減災推進課,140.9877384,38.27857651,地域避難場所
地域避難場所（宮城県仙台第一高等学校）,仙台市若林区元茶畑4,"25,450(㎡)","12,700(人)",,http://www.city.sendai.jp/kurashi/shobo/saigai/1188545_1388.html,指定避難所の確保がむずかしい地域の一時的な避難広場で，比較的大きい公園などが指定されています。,,,危機管理室減災推進課,140.8927695,38.25075582,地域避難場所
地域避難場所（宮城県仙台二華中学校・高等学校）,仙台市若林区連坊1-4-1,"9,218(㎡)","4,600(人)",,http://www.city.sendai.jp/kurashi/shobo/saigai/1188545_1388.html,指定避難所の確保がむずかしい地域の一時的な避難広場で，比較的大きい公園などが指定されています。,,,危機管理室減災推進課,140.8868855,38.25335193,地域避難場所
地域避難場所（木ノ下公園）,仙台市若林区木ノ下2-69,"9,132(㎡)","4,500(人)",,http://www.city.sendai.jp/kurashi/shobo/saigai/1188545_1388.html,指定避難所の確保がむずかしい地域の一時的な避難広場で，比較的大きい公園などが指定されています。,,,危機管理室減災推進課,140.9017381,38.2515432,地域避難場所
地域避難場所（広瀬川宮沢緑地）,仙台市若林区堰場地先,"18,253(㎡)","9,100(人)",,http://www.city.sendai.jp/kurashi/shobo/saigai/1188545_1388.html,指定避難所の確保がむずかしい地域の一時的な避難広場で，比較的大きい公園などが指定されています。,,,危機管理室減災推進課,140.8852508,38.2419698,地域避難場所
地域避難場所（卸町五丁目公園）,仙台市若林区卸町5-4,"18,072(㎡)","9,000(人)",,http://www.city.sendai.jp/kurashi/shobo/saigai/1188545_1388.html,指定避難所の確保がむずかしい地域の一時的な避難広場で，比較的大きい公園などが指定されています。,,,危機管理室減災推進課,140.93126,38.25547584,地域避難場所
地域避難場所（六丁の目南町公園）,仙台市若林区六丁の目南町6-2,"2,564(㎡)","1,200(人)",,http://www.city.sendai.jp/kurashi/shobo/saigai/1188545_1388.html,指定避難所の確保がむずかしい地域の一時的な避難広場で，比較的大きい公園などが指定されています。,,,危機管理室減災推進課,140.9414796,38.24942013,地域避難場所
地域避難場所（六丁の目中町公園）,仙台市若林区六丁の目中町29-1,"2,640(㎡)","1,300(人)",,http://www.city.sendai.jp/kurashi/shobo/saigai/1188545_1388.html,指定避難所の確保がむずかしい地域の一時的な避難広場で，比較的大きい公園などが指定されています。,,,危機管理室減災推進課,140.9447135,38.2528859,地域避難場所
地域避難場所（六丁の目北町公園）,仙台市若林区六丁の目北町9-3,"2,785(㎡)","1,400(人)",,http://www.city.sendai.jp/kurashi/shobo/saigai/1188545_1388.html,指定避難所の確保がむずかしい地域の一時的な避難広場で，比較的大きい公園などが指定されています。,,,危機管理室減災推進課,140.949436,38.25156775,地域避難場所
地域避難場所（六丁の目中町西公園）,仙台市若林区六丁の目中町9-1,"5,346(㎡)","2,700(人)",,http://www.city.sendai.jp/kurashi/shobo/saigai/1188545_1388.html,指定避難所の確保がむずかしい地域の一時的な避難広場で，比較的大きい公園などが指定されています。,,,危機管理室減災推進課,140.9390043,38.25298929,地域避難場所
地域避難場所（卸町東二丁目公園）,仙台市若林区卸町東2-4-1,"33,009(㎡)","16,500(人)",,http://www.city.sendai.jp/kurashi/shobo/saigai/1188545_1388.html,指定避難所の確保がむずかしい地域の一時的な避難広場で，比較的大きい公園などが指定されています。,,,危機管理室減災推進課,140.9479717,38.25918614,地域避難場所
地域避難場所（南小泉公園）,仙台市若林区古城3-209-7 外,"21,104(㎡)","10,500(人)",,http://www.city.sendai.jp/kurashi/shobo/saigai/1188545_1388.html,指定避難所の確保がむずかしい地域の一時的な避難広場で，比較的大きい公園などが指定されています。,,,危機管理室減災推進課,140.9068908,38.23369314,地域避難場所
地域避難場所（広瀬川愛宕緑地）,仙台市太白区越路地内,"11,066(㎡)","5,500(人)",,http://www.city.sendai.jp/kurashi/shobo/saigai/1188545_1388.html,指定避難所の確保がむずかしい地域の一時的な避難広場で，比較的大きい公園などが指定されています。,,,危機管理室減災推進課,140.8745366,38.24687935,地域避難場所
地域避難場所（宮城県仙台南高等学校）,仙台市太白区根岸町14-1,"12,000(㎡)","6,000(人)",,http://www.city.sendai.jp/kurashi/shobo/saigai/1188545_1388.html,指定避難所の確保がむずかしい地域の一時的な避難広場で，比較的大きい公園などが指定されています。,,,危機管理室減災推進課,140.8835212,38.23638331,地域避難場所
地域避難場所（東北郵政研修センター）,仙台市太白区八木山本町2-11-1,"11,533(㎡)","5,700(人)",,http://www.city.sendai.jp/kurashi/shobo/saigai/1188545_1388.html,指定避難所の確保がむずかしい地域の一時的な避難広場で，比較的大きい公園などが指定されています。,,,危機管理室減災推進課,140.840662,38.23988854,地域避難場所
地域避難場所（仙台城南高等学校グラウンド）,仙台市太白区八木山香澄町19-212,"15,000(㎡)","7,500(人)",,http://www.city.sendai.jp/kurashi/shobo/saigai/1188545_1388.html,指定避難所の確保がむずかしい地域の一時的な避難広場で，比較的大きい公園などが指定されています。,,,危機管理室減災推進課,140.862441,38.24545622,地域避難場所
地域避難場所（宮城大学食産業学部）,仙台市太白区旗立2-2-1,"9,000(㎡)","4,500(人)",,http://www.city.sendai.jp/kurashi/shobo/saigai/1188545_1388.html,指定避難所の確保がむずかしい地域の一時的な避難広場で，比較的大きい公園などが指定されています。,,,危機管理室減災推進課,140.8166036,38.22370745,地域避難場所
地域避難場所（東北工業大学青葉山総合グラウンド）,仙台市太白区鈎取字御堂平37,"37,067(㎡)","18,500(人)",,http://www.city.sendai.jp/kurashi/shobo/saigai/1188545_1388.html,指定避難所の確保がむずかしい地域の一時的な避難広場で，比較的大きい公園などが指定されています。,,,危機管理室減災推進課,140.8245203,38.24442181,地域避難場所
地域避難場所（八本松公園）,仙台市太白区八本松2-1-64外,"10,238(㎡)","5,100(人)",,http://www.city.sendai.jp/kurashi/shobo/saigai/1188545_1388.html,指定避難所の確保がむずかしい地域の一時的な避難広場で，比較的大きい公園などが指定されています。,,,危機管理室減災推進課,140.891852,38.22826308,地域避難場所
地域避難場所（中田中央公園）,仙台市太白区東中田5-13,"41,300(㎡)","20,600(人)",,http://www.city.sendai.jp/kurashi/shobo/saigai/1188545_1388.html,指定避難所の確保がむずかしい地域の一時的な避難広場で，比較的大きい公園などが指定されています。,,,危機管理室減災推進課,140.8998638,38.19832044,地域避難場所
地域避難場所（将監公園）,仙台市泉区将監10-28-117,"20,960(㎡)","10,400(人)",,http://www.city.sendai.jp/kurashi/shobo/saigai/1188545_1388.html,指定避難所の確保がむずかしい地域の一時的な避難広場で，比較的大きい公園などが指定されています。,,,危機管理室減災推進課,140.8720665,38.33422941,地域避難場所
地域避難場所（長命ケ丘公園）,仙台市泉区長命ケ丘5-14-2外,"27,161(㎡)","13,500(人)",,http://www.city.sendai.jp/kurashi/shobo/saigai/1188545_1388.html,指定避難所の確保がむずかしい地域の一時的な避難広場で，比較的大きい公園などが指定されています。,,,危機管理室減災推進課,140.8339039,38.31316014,地域避難場所
地域避難場所（東北学院大学泉キャンパス）,仙台市泉区天神沢2-1-1,"59,359(㎡)","29,600(人)",,http://www.city.sendai.jp/kurashi/shobo/saigai/1188545_1388.html,指定避難所の確保がむずかしい地域の一時的な避難広場で，比較的大きい公園などが指定されています。,,,危機管理室減災推進課,140.9039995,38.32789522,地域避難場所
地域避難場所（宮城県泉松陵高等学校）,仙台市泉区鶴が丘4-26-1,"39,378(㎡)","19,600(人)",,http://www.city.sendai.jp/kurashi/shobo/saigai/1188545_1388.html,指定避難所の確保がむずかしい地域の一時的な避難広場で，比較的大きい公園などが指定されています。,,,危機管理室減災推進課,140.9234991,38.32839295,地域避難場所
地域避難場所（黒松二丁目公園）,仙台市泉区黒松2-2-30外,"3,046(㎡)","1,500(人)",,http://www.city.sendai.jp/kurashi/shobo/saigai/1188545_1388.html,指定避難所の確保がむずかしい地域の一時的な避難広場で，比較的大きい公園などが指定されています。,,,危機管理室減災推進課,140.881955,38.30820863,地域避難場所
地域避難場所（南光台南二丁目公園）,仙台市泉区南光台南2-1-350,"3,184(㎡)","1,500(人)",,http://www.city.sendai.jp/kurashi/shobo/saigai/1188545_1388.html,指定避難所の確保がむずかしい地域の一時的な避難広場で，比較的大きい公園などが指定されています。,,,危機管理室減災推進課,140.8990205,38.29332693,地域避難場所
地域避難場所（南光台三丁目公園）,仙台市泉区南光台3-1 地内,"10,027(㎡)","5,000(人)",,http://www.city.sendai.jp/kurashi/shobo/saigai/1188545_1388.html,指定避難所の確保がむずかしい地域の一時的な避難広場で，比較的大きい公園などが指定されています。,,,危機管理室減災推進課,140.8908622,38.29305516,地域避難場所
地域避難場所（泉中央公園）,仙台市泉区泉中央2-18-3,"19,000(㎡)","9,500(人)",,http://www.city.sendai.jp/kurashi/shobo/saigai/1188545_1388.html,指定避難所の確保がむずかしい地域の一時的な避難広場で，比較的大きい公園などが指定されています。,,,危機管理室減災推進課,140.8784845,38.32690095,地域避難場所
地域避難場所（宮城県宮城第一高等学校）,仙台市青葉区八幡1-6-2,"13,524㎡","6,700(人)",,http://www.city.sendai.jp/kurashi/shobo/saigai/1188545_1388.html,指定避難所の確保がむずかしい地域の一時的な避難広場で，比較的大きい公園などが指定されています。,,,危機管理室減災推進課,140.8523531,38.26867105,地域避難場所
地域避難場所（宮城広瀬高等学校）,仙台市青葉区落合4-4-1,"33,500㎡","16,700(人)",,http://www.city.sendai.jp/kurashi/shobo/saigai/1188545_1388.html,指定避難所の確保がむずかしい地域の一時的な避難広場で，比較的大きい公園などが指定されています。,,,危機管理室減災推進課,140.7858956,38.27513451,地域避難場所
地域避難場所（川平三丁目東公園）,仙台市青葉区川平3-14-2,"7,918㎡","3,900(人)",,http://www.city.sendai.jp/kurashi/shobo/saigai/1188545_1388.html,指定避難所の確保がむずかしい地域の一時的な避難広場で，比較的大きい公園などが指定されています。,,,危機管理室減災推進課,140.8411438,38.30715665,地域避難場所
地域避難場所（国見コミュテニィ広場）,仙台市青葉区国見5丁目9番街区,"9,834(㎡)","4,600(人)",,http://www.city.sendai.jp/kurashi/shobo/saigai/1188545_1388.html,指定避難所の確保がむずかしい地域の一時的な避難広場で，比較的大きい公園などが指定されています。,,,危機管理室減災推進課,140.836892,38.27519511,地域避難場所
